[
  {
    "id": "1",
    "name": "Bar del Pla",
    "category": "tapas",
    "categoryEmoji": "ğŸ¥˜",
    "rating": 4.2,
    "reviewCount": 2840,
    "address": "Carrer de la Montcada, 2, Ciutat Vella, Barcelona",
    "lat": 41.3838,
    "lng": 2.1815,
    "description": "ê³ ë”•ì§€êµ¬ì˜ í´ë˜ì‹ ì¹´íƒˆë£¨ëƒ íƒ€íŒŒìŠ¤ ë°”. í˜„ì§€ì¸ë“¤ì—ê²Œ ì‚¬ë‘ë°›ëŠ” ìˆ¨ì€ ëª…ì†Œ.",
    "priceRange": "$$",
    "openHours": "12:00 - 23:00",
    "tags": ["íƒ€íŒŒìŠ¤", "ì¹´íƒˆë£¨ëƒ", "ì™€ì¸", "í˜„ì§€ì¸ì¶”ì²œ"],
    "michelin": false,
    "imageUrl": "https://images.unsplash.com/photo-1414235077428-338989a2e8c0?w=800&q=80",
    "district": "Ciutat Vella",
    "googleMapsUrl": "https://www.google.com/maps/search/?api=1&query=41.3838,2.1815"
  },
  {
    "id": "2",
    "name": "Restaurante 7 Portes",
    "category": "paella",
    "categoryEmoji": "ğŸš",
    "rating": 4.2,
    "reviewCount": 5120,
    "address": "Passeig d'Isabel II, 14, Barceloneta, Barcelona",
    "lat": 41.3803,
    "lng": 2.1848,
    "description": "1836ë…„ ì°½ì—…í•œ ë°”ë¥´ì…€ë¡œë‚˜ ìµœì´ˆì˜ ë ˆìŠ¤í† ë‘ ì¤‘ í•˜ë‚˜. ì •í†µ íŒŒì—ì•¼ì˜ ì„±ì§€.",
    "priceRange": "$$$",
    "openHours": "13:00 - 01:00",
    "tags": ["íŒŒì—ì•¼", "í•´ì‚°ë¬¼", "ì „í†µ", "ëª…ì†Œ"],
    "michelin": false,
    "imageUrl": "https://images.unsplash.com/photo-1534080564583-6be75777b70a?w=800&q=80",
    "district": "Barceloneta",
    "googleMapsUrl": "https://www.google.com/maps/search/?api=1&query=41.3803,2.1848"
  },
  {
    "id": "3",
    "name": "La Cova Fumada",
    "category": "seafood",
    "categoryEmoji": "ğŸ¦‘",
    "rating": 4.6,
    "reviewCount": 1930,
    "address": "Carrer del Baluard, 56, Barceloneta, Barcelona",
    "lat": 41.3793,
    "lng": 2.1870,
    "description": "ë´„ë°”(Bomba) ê°ì íŠ€ê¹€ì˜ ì›ì¡°. ì˜ˆì•½ ë¶ˆê°€, ì¼ì° ê°€ì•¼ ë§›ë³¼ ìˆ˜ ìˆëŠ” ìˆ¨ì€ ë³´ì„.",
    "priceRange": "$$",
    "openHours": "09:00 - 15:00",
    "tags": ["í•´ì‚°ë¬¼", "ë´„ë°”", "í˜„ì§€ì¸ì¶”ì²œ", "ì•„ì¹¨"],
    "michelin": false,
    "imageUrl": "https://images.unsplash.com/photo-1498654896293-37aacf113fd9?w=800&q=80",
    "district": "Barceloneta",
    "googleMapsUrl": "https://www.google.com/maps/search/?api=1&query=41.3793,2.1870"
  },
  {
    "id": "4",
    "name": "Bar CaÃ±ete",
    "category": "tapas",
    "categoryEmoji": "ğŸ¥˜",
    "rating": 4.5,
    "reviewCount": 3120,
    "address": "Carrer de la UniÃ³, 17, El Raval, Barcelona",
    "lat": 41.3806,
    "lng": 2.1712,
    "description": "ì—˜ë¼ë°œì˜ ê³ ê¸‰ íƒ€íŒŒìŠ¤ ë°”. ê¼¬ë§‰Â·ì¡°ê°œÂ·ë©¸ì¹˜ ë“± ìµœê³ ê¸‰ ì¬ë£Œë¥¼ ì‚¬ìš©í•œ ì •í†µ ìŠ¤í˜ì¸ ë°”ë¥´ ìš”ë¦¬. ì„¸ë ¨ëœ ë¶„ìœ„ê¸°ì—ì„œ ìµœìƒê¸‰ íƒ€íŒŒìŠ¤ë¥¼ ì¦ê¸¸ ìˆ˜ ìˆëŠ” í˜„ì§€ ì¸ê¸° ëª…ì†Œ.",
    "priceRange": "$$",
    "openHours": "13:00 - 24:00 (ì›”~í† )",
    "tags": ["íƒ€íŒŒìŠ¤", "í•´ì‚°ë¬¼", "ê³ ê¸‰ë°”ë¥´", "ì—˜ë¼ë°œ"],
    "michelin": false,
    "imageUrl": "https://images.unsplash.com/photo-1600891964092-4316c288032e?w=800&q=80",
    "district": "El Raval",
    "googleMapsUrl": "https://www.google.com/maps/search/?api=1&query=41.3806,2.1712"
  },
  {
    "id": "5",
    "name": "El Xampanyet",
    "category": "tapas",
    "categoryEmoji": "ğŸ¥˜",
    "rating": 4.6,
    "reviewCount": 3150,
    "address": "Carrer de la Montcada, 22, El Born, Barcelona",
    "lat": 41.3841,
    "lng": 2.1823,
    "description": "1929ë…„ë¶€í„° ì´ì–´ì§„ ì¹´ë°”(Cava) ì™€ì¸ ë°”. ì—˜ë³¸ ì§€êµ¬ì˜ ìƒì§•ì  íƒ€íŒŒìŠ¤ ë°”.",
    "priceRange": "$$",
    "openHours": "12:00 - 22:30",
    "tags": ["íƒ€íŒŒìŠ¤", "ì¹´ë°”", "ì—­ì‚¬", "ì—˜ë³¸"],
    "michelin": false,
    "imageUrl": "https://images.unsplash.com/photo-1555396273-367ea4eb4db5?w=800&q=80",
    "district": "El Born",
    "googleMapsUrl": "https://www.google.com/maps/search/?api=1&query=41.3841,2.1823"
  },
  {
    "id": "6",
    "name": "Granja M. Viader",
    "category": "churros",
    "categoryEmoji": "ğŸ©",
    "rating": 4.5,
    "reviewCount": 2640,
    "address": "Carrer den XuclÃ , 4, El Raval, Barcelona",
    "lat": 41.3829,
    "lng": 2.1717,
    "description": "ì¹´ì¹´ì˜¤ ìš°ìœ ë¥¼ ë°œëª…í•œ ì „ì„¤ì ì¸ ê·¸ë‘í•˜. 100ë…„ ì—­ì‚¬ì˜ ë‹¬ì½¤í•œ ì•„ì¹¨ ëª…ì†Œ.",
    "priceRange": "$",
    "openHours": "09:00 - 13:30, 17:00 - 21:00",
    "tags": ["ì¸„ëŸ¬ìŠ¤", "ì´ˆì½œë¦¿", "ì—­ì‚¬", "ì•„ì¹¨"],
    "michelin": false,
    "imageUrl": "https://images.unsplash.com/photo-1578985545062-69928b1d9587?w=800&q=80",
    "district": "El Raval",
    "googleMapsUrl": "https://www.google.com/maps/search/?api=1&query=41.3829,2.1717"
  },
  {
    "id": "7",
    "name": "CervecerÃ­a Catalana",
    "category": "pintxos",
    "categoryEmoji": "ğŸ¢",
    "rating": 4.4,
    "reviewCount": 6830,
    "address": "Carrer de Mallorca, 236, Eixample, Barcelona",
    "lat": 41.3928,
    "lng": 2.1609,
    "description": "ì—ì´ìƒ´í”Œë ˆ ìµœê³ ì˜ í•€ì´ˆìŠ¤ & íƒ€íŒŒìŠ¤ ë°”. í•­ìƒ ë¶ì ì´ëŠ” í˜„ì§€ ë§›ì§‘.",
    "priceRange": "$$",
    "openHours": "08:30 - 01:00",
    "tags": ["í•€ì´ˆìŠ¤", "íƒ€íŒŒìŠ¤", "ì—ì´ìƒ´í”Œë ˆ", "ì¸ê¸°", "ë¸ŒëŸ°ì¹˜"],
    "michelin": false,
    "imageUrl": "https://images.unsplash.com/photo-1504674900247-0877df9cc836?w=800&q=80",
    "district": "Eixample",
    "googleMapsUrl": "https://www.google.com/maps/search/?api=1&query=41.3928,2.1609"
  },
  {
    "id": "8",
    "name": "Can SolÃ©",
    "category": "paella",
    "categoryEmoji": "ğŸš",
    "rating": 4.0,
    "reviewCount": 2180,
    "address": "Carrer de Sant Carles, 4, Barceloneta, Barcelona",
    "lat": 41.3788,
    "lng": 2.1886,
    "description": "1903ë…„ ì°½ì—…, ë°”ë¥´ì…€ë¡œë„¤íƒ€ í•´ë³€ê°€ ì •í†µ í•´ì‚°ë¬¼ íŒŒì—ì•¼ ë ˆìŠ¤í† ë‘.",
    "priceRange": "$$$",
    "openHours": "13:00 - 16:00, 20:30 - 23:00",
    "tags": ["íŒŒì—ì•¼", "í•´ì‚°ë¬¼", "ì „í†µ", "ë°”ë¥´ì…€ë¡œë„¤íƒ€"],
    "michelin": false,
    "imageUrl": "https://images.unsplash.com/photo-1565557623262-b51c2513a641?w=800&q=80",
    "district": "Barceloneta",
    "googleMapsUrl": "https://www.google.com/maps/search/?api=1&query=41.3788,2.1886"
  },
  {
    "id": "9",
    "name": "Quimet & Quimet",
    "category": "tapas",
    "categoryEmoji": "ğŸ¥˜",
    "rating": 4.8,
    "reviewCount": 3940,
    "address": "Carrer del Poeta Cabanyes, 25, Poble Sec, Barcelona",
    "lat": 41.3740,
    "lng": 2.1656,
    "description": "í†µì¡°ë¦¼ íƒ€íŒŒìŠ¤ì˜ ëª…ê°€. ì„¸ê³„ ìµœê³ ì˜ ë°” ì¤‘ í•˜ë‚˜ë¡œ ì†ê¼½íˆëŠ” ì „ì„¤ì ì¸ ê³³.",
    "priceRange": "$$",
    "openHours": "12:00 - 16:00, 19:00 - 22:30",
    "tags": ["íƒ€íŒŒìŠ¤", "í†µì¡°ë¦¼", "ë² ë¥´ë¬´íŠ¸", "í˜„ì§€ì¸ì¶”ì²œ"],
    "michelin": false,
    "imageUrl": "https://images.unsplash.com/photo-1600891964092-4316c288032e?w=800&q=80",
    "district": "Poble Sec",
    "googleMapsUrl": "https://www.google.com/maps/search/?api=1&query=41.3740,2.1656"
  },
  {
    "id": "10",
    "name": "Parking Pizza",
    "category": "tapas",
    "categoryEmoji": "ğŸ•",
    "rating": 4.5,
    "reviewCount": 1820,
    "address": "Carrer de Londres, 98, Eixample, Barcelona",
    "lat": 41.3912,
    "lng": 2.1557,
    "description": "ë°”ë¥´ì…€ë¡œë‚˜ì‹ í“¨ì „ í”¼ìì™€ ì¹´íƒˆë£¨ëƒ íƒ€íŒŒìŠ¤. í¬ë¸”ë ˆë…¸ìš° í™ìŠ¤í„°ë“¤ì˜ ì„±ì§€.",
    "priceRange": "$$",
    "openHours": "13:00 - 23:30",
    "tags": ["íƒ€íŒŒìŠ¤", "í“¨ì „", "ëª¨ë˜", "í™"],
    "michelin": false,
    "imageUrl": "https://images.unsplash.com/photo-1571407970349-bc81e7e96d47?w=800&q=80",
    "district": "Eixample",
    "googleMapsUrl": "https://www.google.com/maps/search/?api=1&query=41.3912,2.1557"
  },
  {
    "id": "11",
    "name": "La Mar Salada",
    "category": "seafood",
    "categoryEmoji": "ğŸ¦‘",
    "rating": 4.6,
    "reviewCount": 2450,
    "address": "Passeig de Joan de BorbÃ³, 58, Barceloneta, Barcelona",
    "lat": 41.3768,
    "lng": 2.1867,
    "description": "ë°”ë¥´ì…€ë¡œë„¤íƒ€ í•´ë³€ê°€ ì‹ ì„ í•œ í•´ì‚°ë¬¼ ì „ë¬¸ì . íŒŒë…¸ë¼ë§ˆ ì§€ì¤‘í•´ ë·° ë ˆìŠ¤í† ë‘.",
    "priceRange": "$$$",
    "openHours": "12:30 - 16:00, 20:00 - 23:00",
    "tags": ["í•´ì‚°ë¬¼", "í•´ë³€ë·°", "ì§€ì¤‘í•´", "ë¡œë§¨í‹±"],
    "michelin": false,
    "imageUrl": "https://images.unsplash.com/photo-1559847844-5315695dadae?w=800&q=80",
    "district": "Barceloneta",
    "googleMapsUrl": "https://www.google.com/maps/search/?api=1&query=41.3768,2.1867"
  },
  {
    "id": "12",
    "name": "Cal Pep",
    "category": "tapas",
    "categoryEmoji": "ğŸ¥˜",
    "rating": 4.3,
    "reviewCount": 2850,
    "address": "PlaÃ§a de les Olles, 8, El Born, Barcelona",
    "lat": 41.3840,
    "lng": 2.1833,
    "description": "1988ë…„ ì°½ì—…í•œ ì—˜ë³¸ì˜ ì „ì„¤ì ì¸ í•´ì‚°ë¬¼ íƒ€íŒŒìŠ¤ ë°”. ì¹´ìš´í„° ì¢Œì„ì—ì„œ ì£¼ì¸ì´ ì§ì ‘ ë‚´ì£¼ëŠ” ì‹ ì„ í•œ í•´ì‚°ë¬¼ ìš”ë¦¬ê°€ ì¼í’ˆ. í˜„ì§€ì¸ë“¤ì´ ì‚¬ë‘í•˜ëŠ” ë°”ë¥´ì…€ë¡œë‚˜ ìµœì•  ëª…ì†Œ.",
    "priceRange": "$$",
    "openHours": "13:00 - 16:00, 19:00 - 23:00 (ì›”~ê¸ˆ), 13:00 - 16:00 (í† )",
    "tags": ["íƒ€íŒŒìŠ¤", "í•´ì‚°ë¬¼", "ì¹´ìš´í„°ë°”", "ì—˜ë³¸", "í˜„ì§€ì¸ì¶”ì²œ"],
    "michelin": false,
    "imageUrl": "https://images.unsplash.com/photo-1498654896293-37aacf113fd9?w=800&q=80",
    "district": "El Born",
    "googleMapsUrl": "https://www.google.com/maps/search/?api=1&query=41.3840,2.1833"
  },
  {
    "id": "13",
    "name": "Bodega SepÃºlveda",
    "category": "tapas",
    "categoryEmoji": "ğŸ¥˜",
    "rating": 4.5,
    "reviewCount": 980,
    "address": "Carrer de SepÃºlveda, 173, Sant Antoni, Barcelona",
    "lat": 41.3793,
    "lng": 2.1598,
    "description": "ì‚°íŠ¸ ì•ˆí† ë‹ˆ ì‹œì¥ ê·¼ì²˜ ì™€ì¸ ì…€ëŸ¬ ê²¸ íƒ€íŒŒìŠ¤ ë°”. ìì—°íŒŒ ì™€ì¸ ì„±ì§€.",
    "priceRange": "$$",
    "openHours": "11:00 - 23:00",
    "tags": ["íƒ€íŒŒìŠ¤", "ìì—°íŒŒì™€ì¸", "ì‚°íŠ¸ì•ˆí† ë‹ˆ", "ë…ë¦½"],
    "michelin": false,
    "imageUrl": "https://images.unsplash.com/photo-1414235077428-338989a2e8c0?w=800&q=80",
    "district": "Sant Antoni",
    "googleMapsUrl": "https://www.google.com/maps/search/?api=1&query=41.3793,2.1598"
  },
  {
    "id": "14",
    "name": "CafÃ¨ de l'AcadÃ¨mia",
    "category": "tapas",
    "categoryEmoji": "ğŸ¥˜",
    "rating": 4.6,
    "reviewCount": 2160,
    "address": "Carrer dels Llledoners, 1, Barri GÃ²tic, Barcelona",
    "lat": 41.3823,
    "lng": 2.1771,
    "description": "ê³ ë”•ì§€êµ¬ ê³¨ëª© ìˆ¨ì€ ì¹´íƒˆë£¨ëƒ ìš”ë¦¬ ëª…ì†Œ. ê³„ì ˆ ë©”ë‰´ì™€ í›Œë¥­í•œ ê°€ì„±ë¹„.",
    "priceRange": "$$",
    "openHours": "09:00 - 12:00, 13:00 - 16:00, 20:00 - 23:00",
    "tags": ["ì¹´íƒˆë£¨ëƒ", "ê³„ì ˆë©”ë‰´", "ê³ ë”•ì§€êµ¬", "í˜„ì§€ì¸", "ì¹´í˜"],
    "michelin": false,
    "imageUrl": "https://images.unsplash.com/photo-1517248135467-4c7edcad34c4?w=800&q=80",
    "district": "Barri GÃ²tic",
    "googleMapsUrl": "https://www.google.com/maps/search/?api=1&query=41.3823,2.1771"
  },
  {
    "id": "15",
    "name": "Bar Calders",
    "category": "pintxos",
    "categoryEmoji": "ğŸ¢",
    "rating": 4.4,
    "reviewCount": 3280,
    "address": "Carrer del Parlament, 25, Sant Antoni, Barcelona",
    "lat": 41.3779,
    "lng": 2.1617,
    "description": "ì‚°íŠ¸ ì•ˆí† ë‹ˆì˜ íŠ¸ë Œë””í•œ ë² ë¥´ë¬´íŠ¸ & í•€ì´ˆìŠ¤ ë°”. ì¼ìš”ì¼ ë¸ŒëŸ°ì¹˜ê°€ ìœ ëª….",
    "priceRange": "$$",
    "openHours": "09:00 - 00:30",
    "tags": ["í•€ì´ˆìŠ¤", "ë² ë¥´ë¬´íŠ¸", "ë¸ŒëŸ°ì¹˜", "íŠ¸ë Œë””"],
    "michelin": false,
    "imageUrl": "https://images.unsplash.com/photo-1551218808-94e220e084d2?w=800&q=80",
    "district": "Sant Antoni",
    "googleMapsUrl": "https://www.google.com/maps/search/?api=1&query=41.3779,2.1617"
  },
  {
    "id": "16",
    "name": "Boca Grande",
    "category": "seafood",
    "categoryEmoji": "ğŸ¦‘",
    "rating": 4.5,
    "reviewCount": 1920,
    "address": "Passatge de la ConcepciÃ³, 12, Eixample, Barcelona",
    "lat": 41.3937,
    "lng": 2.1604,
    "description": "íŒŒì„¸ì˜¤ ë° ê·¸ë¼ì‹œì•„ ê·¼ì²˜ ìµœê³ ê¸‰ í•´ì‚°ë¬¼ ë ˆìŠ¤í† ë‘. ì„¸ë ¨ëœ ì¸í…Œë¦¬ì–´ì™€ íƒì›”í•œ ì„œë¹„ìŠ¤.",
    "priceRange": "$$$$",
    "openHours": "13:00 - 23:30",
    "tags": ["í•´ì‚°ë¬¼", "ê³ ê¸‰", "ì—ì´ìƒ´í”Œë ˆ", "ë¡œë§¨í‹±"],
    "michelin": false,
    "imageUrl": "https://images.unsplash.com/photo-1559339352-11d035aa65de?w=800&q=80",
    "district": "Eixample",
    "googleMapsUrl": "https://www.google.com/maps/search/?api=1&query=41.3937,2.1604"
  },
  {
    "id": "17",
    "name": "ChÃ¶k",
    "category": "churros",
    "categoryEmoji": "ğŸ©",
    "rating": 4.6,
    "reviewCount": 2380,
    "address": "Carrer del Carme, 3, El Raval, Barcelona",
    "lat": 41.3820,
    "lng": 2.1715,
    "description": "ì°½ì˜ì ì¸ í¬ë¡œë„›ê³¼ ì¸„ëŸ¬ìŠ¤ ì „ë¬¸ì . ë§¤ì¼ ì‹ ì„ í•˜ê²Œ ë§Œë“œëŠ” ì•„í‹°ì¦Œ ë„ë„›.",
    "priceRange": "$",
    "openHours": "09:00 - 21:00",
    "tags": ["ì¸„ëŸ¬ìŠ¤", "ë„ë„›", "ì•„í‹°ì¦Œ", "ë””ì €íŠ¸"],
    "michelin": false,
    "imageUrl": "https://images.unsplash.com/photo-1578985545062-69928b1d9587?w=800&q=80",
    "district": "El Raval",
    "googleMapsUrl": "https://www.google.com/maps/search/?api=1&query=41.3820,2.1715"
  },
  {
    "id": "18",
    "name": "La Pepita",
    "category": "jamon",
    "categoryEmoji": "ğŸ¥–",
    "rating": 4.5,
    "reviewCount": 4150,
    "address": "Carrer de la Montcada, 36, El Born, Barcelona",
    "lat": 41.3844,
    "lng": 2.1820,
    "description": "ì—˜ë³¸ ê³¨ëª©ì˜ ì¸ê¸° ë³´ì¹´ë””ìš”(ë°”ê²ŒíŠ¸ ìƒŒë“œìœ„ì¹˜) ì¹´í˜. ì´ë² ë¦¬ì½” í•˜ëª¬ ë³´ì¹´ë””ìš”ë¥¼ ë¹ ë¥´ê²Œ ì¦ê¸¸ ìˆ˜ ìˆì–´ í˜„ì§€ì¸ë“¤ì´ ì¦ê²¨ ì°¾ëŠ” ê°„í¸ì‹ ëª…ì†Œ.",
    "priceRange": "$$",
    "openHours": "09:00 - 22:30",
    "tags": ["ë³´ì¹´ë””ìš”", "ìƒŒë“œìœ„ì¹˜", "í•˜ëª¬", "ì—˜ë³¸", "ë§¤ì¥ì‹ì‚¬"],
    "michelin": false,
    "imageUrl": "https://images.unsplash.com/photo-1544025162-d76694265947?w=800&q=80",
    "district": "El Born",
    "googleMapsUrl": "https://www.google.com/maps/search/?api=1&query=41.3844,2.1820"
  },
  {
    "id": "19",
    "name": "Barraca",
    "category": "paella",
    "categoryEmoji": "ğŸš",
    "rating": 4.6,
    "reviewCount": 3420,
    "address": "Passeig MarÃ­tim de la Barceloneta, 1, Barceloneta, Barcelona",
    "lat": 41.3769,
    "lng": 2.1917,
    "description": "í•´ë³€ ë°”ë¡œ ì• íŒŒì—ì•¼ ë ˆìŠ¤í† ë‘. ì§€ì¤‘í•´ ë·°ë¥¼ ë°”ë¼ë³´ë©° ì¦ê¸°ëŠ” ìµœê³ ì˜ íŒŒì—ì•¼.",
    "priceRange": "$$$",
    "openHours": "12:30 - 23:00",
    "tags": ["íŒŒì—ì•¼", "í•´ë³€", "ì§€ì¤‘í•´ë·°", "ë‚­ë§Œ"],
    "michelin": false,
    "imageUrl": "https://images.unsplash.com/photo-1534080564583-6be75777b70a?w=800&q=80",
    "district": "Barceloneta",
    "googleMapsUrl": "https://www.google.com/maps/search/?api=1&query=41.3769,2.1917"
  },
  {
    "id": "20",
    "name": "El Nacional",
    "category": "tapas",
    "categoryEmoji": "ğŸ¥˜",
    "rating": 4.4,
    "reviewCount": 5670,
    "address": "Passeig de GrÃ cia, 24 bis, Eixample, Barcelona",
    "lat": 41.3919,
    "lng": 2.1648,
    "description": "íŒŒì„¸ì˜¤ ë° ê·¸ë¼ì‹œì•„ì˜ ì›…ì¥í•œ í‘¸ë“œí™€. 4ê°œì˜ ë ˆìŠ¤í† ë‘ê³¼ 4ê°œì˜ ë°”ê°€ í•œ ê³µê°„ì—.",
    "priceRange": "$$$",
    "openHours": "12:00 - 01:00",
    "tags": ["íƒ€íŒŒìŠ¤", "í‘¸ë“œí™€", "ì—ì´ìƒ´í”Œë ˆ", "ë‹¤ì–‘"],
    "michelin": false,
    "imageUrl": "https://images.unsplash.com/photo-1414235077428-338989a2e8c0?w=800&q=80",
    "district": "Eixample",
    "googleMapsUrl": "https://www.google.com/maps/search/?api=1&query=41.3919,2.1648"
  }
]
